{
"type": "FeatureCollection",
"name": "Colleges_and_Universities",
"crs": { "type": "name", "properties": { "name": "urn:ogc:def:crs:OGC:1.3:CRS84" } },
"features": [
{ "type": "Feature", "properties": { "onemap_sdeadmin_colluniv_area": "910", "objectid": 5, "id": "10274259", "metlnkid": " ", "feattype": "POINT", "secclass": "UNCLASSIFIED", "name": "UNIVERSITY OF NORTH CAROLINA-WILMINGTON", "phone": "962-3000", "address": "601 SOUTH COLLEGE ROAD", "address2": " ", "city": "WILMINGTON", "state": "NC", "zip": "28403", "zipp4": "3201", "county": "NEW HANOVER", "fips": "37129", "directions": " ", "emergtitle": " ", "emergphone": " ", "emergext": " ", "contdate": null, "conthow": " ", "geodate": "2007-06-26T00:00:00Z", "geohow": "AUTO", "naicscode": "611310", "naicsdescr": "UNIVERSITIES", "geolinkid": "125444152", "x": -77.8791389, "y": 34.2267532, "st_vendor": "NAVTEQ", "st_version": "2006Q4", "geoprec": "BLOCKFACE", "phoneloc": " ", "qc_qa": " ", "degree": "DOCTOR'S DEGREE", "enroll": 11839 }, "geometry": { "type": "Point", "coordinates": [ -77.879141244325524, 34.226759951541354 ] } },
{ "type": "Feature", "properties": { "onemap_sdeadmin_colluniv_area": "336", "objectid": 21, "id": "10274283", "metlnkid": " ", "feattype": "POINT", "secclass": "UNCLASSIFIED", "name": "WAKE FOREST UNIVERSITY", "phone": "758-5255", "address": "1834 WAKE FOREST ROAD", "address2": " ", "city": "WINSTON SALEM", "state": "NC", "zip": "27106", "zipp4": " ", "county": "FORSYTH", "fips": "37067", "directions": " ", "emergtitle": " ", "emergphone": " ", "emergext": " ", "contdate": null, "conthow": " ", "geodate": "2007-06-26T00:00:00Z", "geohow": "AUTO", "naicscode": "611310", "naicsdescr": "UNIVERSITIES", "geolinkid": "17046884", "x": -80.2740617, "y": 36.1371158, "st_vendor": "NAVTEQ", "st_version": "2006Q4", "geoprec": "BLOCKFACE", "phoneloc": " ", "qc_qa": " ", "degree": "DOCTOR'S DEGREE", "enroll": 6716 }, "geometry": { "type": "Point", "coordinates": [ -80.27406477801614, 36.137122886946599 ] } },
{ "type": "Feature", "properties": { "onemap_sdeadmin_colluniv_area": "704", "objectid": 34, "id": "10272060", "metlnkid": " ", "feattype": "POINT", "secclass": "UNCLASSIFIED", "name": "CATAWBA COLLEGE", "phone": "637-4111", "address": "2300 W INNES ST", "address2": " ", "city": "SALISBURY", "state": "NC", "zip": "28144", "zipp4": "2441", "county": "ROWAN", "fips": "37159", "directions": " ", "emergtitle": " ", "emergphone": " ", "emergext": " ", "contdate": null, "conthow": " ", "geodate": "2007-06-26T00:00:00Z", "geohow": "AUTO", "naicscode": "611310", "naicsdescr": "COLLEGES (EXCEPT JUNIOR COLLEGES)", "geolinkid": "102405866", "x": -80.4816967, "y": 35.6907307, "st_vendor": "NAVTEQ", "st_version": "2006Q4", "geoprec": "BLOCKFACE", "phoneloc": " ", "qc_qa": " ", "degree": "MASTER'S DEGREE", "enroll": 1288 }, "geometry": { "type": "Point", "coordinates": [ -80.481699819546051, 35.690737707947982 ] } },
{ "type": "Feature", "properties": { "onemap_sdeadmin_colluniv_area": "336", "objectid": 39, "id": "10274273", "metlnkid": " ", "feattype": "POINT", "secclass": "UNCLASSIFIED", "name": "SALEM COLLEGE", "phone": "721-2600", "address": "601 S CHURCH ST", "address2": " ", "city": "WINSTON SALEM", "state": "NC", "zip": "27101", "zipp4": "5318", "county": "FORSYTH", "fips": "37067", "directions": " ", "emergtitle": " ", "emergphone": " ", "emergext": " ", "contdate": null, "conthow": " ", "geodate": "2007-06-26T00:00:00Z", "geohow": "AUTO", "naicscode": "611310", "naicsdescr": "COLLEGES (EXCEPT JUNIOR COLLEGES)", "geolinkid": "17057325", "x": -80.2409896, "y": 36.087371, "st_vendor": "NAVTEQ", "st_version": "2006Q4", "geoprec": "BLOCKFACE", "phoneloc": " ", "qc_qa": " ", "degree": "MASTER'S DEGREE", "enroll": 1109 }, "geometry": { "type": "Point", "coordinates": [ -80.240992672613388, 36.087378125345175 ] } },
{ "type": "Feature", "properties": { "onemap_sdeadmin_colluniv_area": "919", "objectid": 58, "id": "10274245", "metlnkid": " ", "feattype": "POINT", "secclass": "UNCLASSIFIED", "name": "MEREDITH COLLEGE", "phone": "760-8600", "address": "3800 HILLSBOROUGH ST", "address2": " ", "city": "RALEIGH", "state": "NC", "zip": "27607", "zipp4": "5237", "county": "WAKE", "fips": "37183", "directions": " ", "emergtitle": " ", "emergphone": " ", "emergext": " ", "contdate": null, "conthow": " ", "geodate": "2007-06-26T00:00:00Z", "geohow": "AUTO", "naicscode": "611310", "naicsdescr": "COLLEGES (EXCEPT JUNIOR COLLEGES)", "geolinkid": "17108145", "x": -78.6880408, "y": 35.7945245, "st_vendor": "NAVTEQ", "st_version": "2006Q4", "geoprec": "BLOCKFACE", "phoneloc": " ", "qc_qa": " ", "degree": "MASTER'S DEGREE", "enroll": 2168 }, "geometry": { "type": "Point", "coordinates": [ -78.688043379358973, 35.79453156054511 ] } },
{ "type": "Feature", "properties": { "onemap_sdeadmin_colluniv_area": "828", "objectid": 75, "id": "10271832", "metlnkid": " ", "feattype": "POINT", "secclass": "UNCLASSIFIED", "name": "WESTERN CAROLINA UNIVERSITY", "phone": "227-7211", "address": "CENTENNIAL DRIVE", "address2": "102 CAMP BUILDING - ADMISSIONS", "city": "CULLOWHEE", "state": "NC", "zip": "28723", "zipp4": " ", "county": "JACKSON", "fips": "37099", "directions": "ON THE NORTHEAST CORNER OF NORTON ROAD AND CENTENNIAL DRIVE", "emergtitle": " ", "emergphone": " ", "emergext": " ", "contdate": "2007-07-11T00:00:00Z", "conthow": "PHONE", "geodate": "2007-07-11T00:00:00Z", "geohow": "MANUAL", "naicscode": "611310", "naicsdescr": "UNIVERSITIES", "geolinkid": "109897431", "x": -83.1838218, "y": 35.3101764, "st_vendor": "NAVTEQ", "st_version": "2006Q4", "geoprec": "ONENTITY", "phoneloc": "YES", "qc_qa": "TGS", "degree": "DOCTOR'S DEGREE", "enroll": 8665 }, "geometry": { "type": "Point", "coordinates": [ -83.183825731571915, 35.310183196839986 ] } },
{ "type": "Feature", "properties": { "onemap_sdeadmin_colluniv_area": "336", "objectid": 76, "id": "10274235", "metlnkid": " ", "feattype": "POINT", "secclass": "UNCLASSIFIED", "name": "HIGH POINT UNIVERSITY", "phone": "841-9000", "address": "833 MONTLIEU AVENUE", "address2": " ", "city": "HIGH POINT", "state": "NC", "zip": "27262", "zipp4": "4221", "county": "GUILFORD", "fips": "37081", "directions": "ON THE NORTHWEST SIDE OF MONTLIEU AVENUE BETWEEN BARBEE AVENUE AND NORTH COLLEGE DRIVE", "emergtitle": " ", "emergphone": " ", "emergext": " ", "contdate": "2007-07-10T00:00:00Z", "conthow": "PHONE", "geodate": "2007-07-10T00:00:00Z", "geohow": "MANUAL", "naicscode": "611310", "naicsdescr": "UNIVERSITIES", "geolinkid": "17134278", "x": -79.9926527, "y": 35.9698002, "st_vendor": "NAVTEQ", "st_version": "2006Q4", "geoprec": "BLOCKFACE", "phoneloc": "YES", "qc_qa": "TGS", "degree": "MASTER'S DEGREE", "enroll": 2753 }, "geometry": { "type": "Point", "coordinates": [ -79.992655737311296, 35.969807303425867 ] } },
{ "type": "Feature", "properties": { "onemap_sdeadmin_colluniv_area": "828", "objectid": 80, "id": "10274200", "metlnkid": " ", "feattype": "POINT", "secclass": "UNCLASSIFIED", "name": "APPALACHIAN STATE UNIVERSITY", "phone": "262-2000", "address": "APPALACHIAN STATE UNIVERSITY", "address2": " ", "city": "BOONE", "state": "NC", "zip": "28608", "zipp4": " ", "county": "WATAUGA", "fips": "37189", "directions": "SOUTHWEST QUADRANT OF THE INTERSECTION OF HOWARD STREET AND HARDIN STREET", "emergtitle": " ", "emergphone": " ", "emergext": " ", "contdate": "2007-07-11T00:00:00Z", "conthow": "PHONE", "geodate": "2007-07-11T00:00:00Z", "geohow": "MANUAL", "naicscode": "611310", "naicsdescr": "UNIVERSITIES", "geolinkid": "102417827", "x": -81.6752045, "y": 36.21527, "st_vendor": "NAVTEQ", "st_version": "2006Q4", "geoprec": "BLOCKFACE", "phoneloc": "YES", "qc_qa": "TGS", "degree": "DOCTOR'S DEGREE", "enroll": 14653 }, "geometry": { "type": "Point", "coordinates": [ -81.675208010607349, 36.215277075491379 ] } },
{ "type": "Feature", "properties": { "onemap_sdeadmin_colluniv_area": "704", "objectid": 92, "id": "10272061", "metlnkid": " ", "feattype": "POINT", "secclass": "UNCLASSIFIED", "name": "DAVIDSON COLLEGE", "phone": "894-2000", "address": "102 NORTH MAIN STREET", "address2": " ", "city": "DAVIDSON", "state": "NC", "zip": "28036", "zipp4": "9402", "county": "MECKLENBURG", "fips": "37119", "directions": "ON THE EAST SIDE OF N MAIN ST, .15 MI SOUTH OF GRIFFITH ST.", "emergtitle": " ", "emergphone": " ", "emergext": " ", "contdate": "2007-07-10T00:00:00Z", "conthow": "PHONE", "geodate": "2007-07-10T00:00:00Z", "geohow": "MANUAL", "naicscode": "611310", "naicsdescr": "COLLEGES (EXCEPT JUNIOR COLLEGES)", "geolinkid": "40501948", "x": -80.8479148, "y": 35.4996766, "st_vendor": "NAVTEQ", "st_version": "2006Q4", "geoprec": "BLOCKFACE", "phoneloc": "YES", "qc_qa": "TGS", "degree": "BACHELOR'S DEGREE", "enroll": 1683 }, "geometry": { "type": "Point", "coordinates": [ -80.847918077470752, 35.49968355075243 ] } },
{ "type": "Feature", "properties": { "onemap_sdeadmin_colluniv_area": "919", "objectid": 95, "id": "10272141", "metlnkid": " ", "feattype": "POINT", "secclass": "UNCLASSIFIED", "name": "DUKE UNIVERSITY", "phone": "684-2813", "address": "2138 CAMPUS DRIVE", "address2": "UNDERGRADUATE ADMISSIONS", "city": "DURHAM", "state": "NC", "zip": "27708", "zipp4": " ", "county": "DURHAM", "fips": "37063", "directions": "LOC ON THE NORTH SIDE OF CAMPUS DR, .11 MI WEST OF ANDERSON ST.", "emergtitle": " ", "emergphone": " ", "emergext": " ", "contdate": "2007-07-10T00:00:00Z", "conthow": "PHONE", "geodate": "2007-07-10T00:00:00Z", "geohow": "MANUAL", "naicscode": "611310", "naicsdescr": "UNIVERSITIES", "geolinkid": "17086509", "x": -78.9323381, "y": 35.9998472, "st_vendor": "NAVTEQ", "st_version": "2006Q4", "geoprec": "ONENTITY", "phoneloc": "YES", "qc_qa": "TGS", "degree": "DOCTOR'S DEGREE", "enroll": 14075 }, "geometry": { "type": "Point", "coordinates": [ -78.932340820068575, 35.999854355466518 ] } },
{ "type": "Feature", "properties": { "onemap_sdeadmin_colluniv_area": "910", "objectid": 96, "id": "10274211", "metlnkid": " ", "feattype": "POINT", "secclass": "UNCLASSIFIED", "name": "CAMPBELL UNIVERSITY", "phone": "893-1200", "address": "421 LESLIE CAMPBELL AVENUE", "address2": " ", "city": "BUIES CREEK", "state": "NC", "zip": "27506", "zipp4": " ", "county": "HARNETT", "fips": "37085", "directions": ".06 MILES NORTH OF LESLIE CAMPBELL AVENUE ON THE EAST SIDE OF MAIN STREET", "emergtitle": " ", "emergphone": " ", "emergext": " ", "contdate": "2007-07-10T00:00:00Z", "conthow": "PHONE", "geodate": "2007-07-10T00:00:00Z", "geohow": "MANUAL", "naicscode": "611310", "naicsdescr": "UNIVERSITIES", "geolinkid": "102412068", "x": -78.7376333, "y": 35.4078996, "st_vendor": "NAVTEQ", "st_version": "2006Q4", "geoprec": "ONENTITY", "phoneloc": "YES", "qc_qa": "TGS", "degree": "MASTER'S DEGREE", "enroll": 6669 }, "geometry": { "type": "Point", "coordinates": [ -78.737635958222072, 35.407906616517025 ] } },
{ "type": "Feature", "properties": { "onemap_sdeadmin_colluniv_area": "919", "objectid": 98, "id": "10274257", "metlnkid": " ", "feattype": "POINT", "secclass": "UNCLASSIFIED", "name": "NORTH CAROLINA STATE UNIVERSITY AT RALEIGH", "phone": "515-2011", "address": "2200 HILLSBOROUGH STREET", "address2": " ", "city": "RALEIGH", "state": "NC", "zip": "27695", "zipp4": "0001", "county": "WAKE", "fips": "37183", "directions": "SOUTH SIDE OF HILLSBOROUGH STREET APPROX 0.19 MILES NORTHWEST OF THE INTERSECTION OF HILLSBOROUGH STREET AND OBERLIN RD", "emergtitle": " ", "emergphone": " ", "emergext": " ", "contdate": "2007-07-11T00:00:00Z", "conthow": "PHONE", "geodate": "2007-07-11T00:00:00Z", "geohow": "MANUAL", "naicscode": "611310", "naicsdescr": "UNIVERSITIES", "geolinkid": "17109632", "x": -78.6644827, "y": 35.7864724, "st_vendor": "NAVTEQ", "st_version": "2006Q4", "geoprec": "BLOCKFACE", "phoneloc": "YES", "qc_qa": "TGS", "degree": "DOCTOR'S DEGREE", "enroll": 30148 }, "geometry": { "type": "Point", "coordinates": [ -78.664485307872809, 35.786479484989968 ] } },
{ "type": "Feature", "properties": { "onemap_sdeadmin_colluniv_area": "336", "objectid": 99, "id": "10274291", "metlnkid": " ", "feattype": "POINT", "secclass": "UNCLASSIFIED", "name": "WINSTON-SALEM STATE UNIVERSITY", "phone": "750-2000", "address": "601 MARTIN LUTHER KING JUNIOR DRIVE", "address2": " ", "city": "WINSTON SALEM", "state": "NC", "zip": "27110", "zipp4": "0003", "county": "FORSYTH", "fips": "37067", "directions": ".28 MILES NORTHWEST OF REYNOLDS PARK ROAD ON THE NORTHEAST SIDE OF MARTIN LUTHER KING JUNIOR DRIVE", "emergtitle": " ", "emergphone": " ", "emergext": " ", "contdate": "2007-07-10T00:00:00Z", "conthow": "PHONE", "geodate": "2007-07-10T00:00:00Z", "geohow": "MANUAL", "naicscode": "611310", "naicsdescr": "UNIVERSITIES", "geolinkid": "17057053", "x": -80.2263109, "y": 36.0887777, "st_vendor": "NAVTEQ", "st_version": "2006Q4", "geoprec": "BLOCKFACE", "phoneloc": "YES", "qc_qa": "TGS", "degree": "MASTER'S DEGREE", "enroll": 5566 }, "geometry": { "type": "Point", "coordinates": [ -80.226314049415521, 36.088784800982317 ] } },
{ "type": "Feature", "properties": { "onemap_sdeadmin_colluniv_area": "828", "objectid": 104, "id": "10274251", "metlnkid": " ", "feattype": "POINT", "secclass": "UNCLASSIFIED", "name": "UNIVERSITY OF NORTH CAROLINA - ASHEVILLE", "phone": "251-6600", "address": "1 UNIVERSITY HEIGHTS", "address2": " ", "city": "ASHEVILLE", "state": "NC", "zip": "28804", "zipp4": "3251", "county": "BUNCOMBE", "fips": "37021", "directions": "FROM W T WEAVER BLVD, TURN NORTH ON TO UNIVERSITY HTS FOR .27 MI. CAMPUS IS LOC ON THE NW SIDE OF UNIVERSITY HTS.", "emergtitle": " ", "emergphone": " ", "emergext": " ", "contdate": "2007-07-09T00:00:00Z", "conthow": "PHONE", "geodate": "2007-07-09T00:00:00Z", "geohow": "MANUAL", "naicscode": "611310", "naicsdescr": "UNIVERSITIES", "geolinkid": "125464315", "x": -82.564195, "y": 35.6170734, "st_vendor": "NAVTEQ", "st_version": "2006Q4", "geoprec": "BLOCKFACE", "phoneloc": "YES", "qc_qa": "TGS", "degree": "MASTER'S DEGREE", "enroll": 3499 }, "geometry": { "type": "Point", "coordinates": [ -82.564198752092025, 35.617080278647627 ] } },
{ "type": "Feature", "properties": { "onemap_sdeadmin_colluniv_area": "919", "objectid": 110, "id": "10274252", "metlnkid": " ", "feattype": "POINT", "secclass": "UNCLASSIFIED", "name": "UNIVERSITY OF NORTH CAROLINA AT CHAPEL HILL", "phone": "962-2211", "address": "200 EAST CAMERON AVENUE", "address2": "103 SOUTH BUILDING CAMPUS, BUILDING 9100", "city": "CHAPEL HILL", "state": "NC", "zip": "27514", "zipp4": "3601", "county": "ORANGE", "fips": "37135", "directions": "SOUTHEAST SIDE OF E CAMERON AVE BETWEEN RALEIGH STREET AND COLUMBIA STREET", "emergtitle": " ", "emergphone": " ", "emergext": " ", "contdate": "2007-07-10T00:00:00Z", "conthow": "PHONE", "geodate": "2007-07-27T00:00:00Z", "geohow": "MANUAL", "naicscode": "611310", "naicsdescr": "UNIVERSITIES", "geolinkid": "17134607", "x": -79.0510963, "y": 35.9116908, "st_vendor": "NAVTEQ", "st_version": "2006Q4", "geoprec": "ONENTITY", "phoneloc": "YES", "qc_qa": "TGS", "degree": "DOCTOR'S DEGREE", "enroll": 27276 }, "geometry": { "type": "Point", "coordinates": [ -79.051099022837164, 35.911697868263666 ] } },
{ "type": "Feature", "properties": { "onemap_sdeadmin_colluniv_area": "336", "objectid": 113, "id": "10272002", "metlnkid": " ", "feattype": "POINT", "secclass": "UNCLASSIFIED", "name": "ELON UNIVERSITY", "phone": "278-2000", "address": "301 WEST HAGGARD AVENUE", "address2": "WELCOME CENTER", "city": "ELON", "state": "NC", "zip": "27244", "zipp4": "7664", "county": "ALAMANCE", "fips": "37001", "directions": "ON THE NORTH SIDE OF W HAGGARD AVE, .22 MI WEST OF N WILLIAMSON AVE.", "emergtitle": " ", "emergphone": " ", "emergext": " ", "contdate": "2007-07-09T00:00:00Z", "conthow": "PHONE", "geodate": "2007-07-09T00:00:00Z", "geohow": "MANUAL", "naicscode": "611310", "naicsdescr": "UNIVERSITIES", "geolinkid": "102415396", "x": -79.5106523, "y": 36.1030411, "st_vendor": "NAVTEQ", "st_version": "2006Q4", "geoprec": "BLOCKFACE", "phoneloc": "YES", "qc_qa": "TGS", "degree": "DOCTOR'S DEGREE", "enroll": 4956 }, "geometry": { "type": "Point", "coordinates": [ -79.510655221173579, 36.103048216020909 ] } },
{ "type": "Feature", "properties": { "onemap_sdeadmin_colluniv_area": "252", "objectid": 118, "id": "10274223", "metlnkid": " ", "feattype": "POINT", "secclass": "UNCLASSIFIED", "name": "EAST CAROLINA UNIVERSITY", "phone": "328-6131", "address": "EAST 5TH STREET", "address2": " ", "city": "GREENVILLE", "state": "NC", "zip": "27858", "zipp4": " ", "county": "PITT", "fips": "37147", "directions": "SOUTHEAST QUADRANT OF THE INTERSECTION OF E 5TH STREET AND READE CIRCLE", "emergtitle": " ", "emergphone": " ", "emergext": " ", "contdate": "2007-07-10T00:00:00Z", "conthow": "PHONE", "geodate": "2007-07-10T00:00:00Z", "geohow": "MANUAL", "naicscode": "611310", "naicsdescr": "UNIVERSITIES", "geolinkid": "125338371", "x": -77.3705802, "y": 35.6103707, "st_vendor": "NAVTEQ", "st_version": "2006Q4", "geoprec": "BLOCKFACE", "phoneloc": "YES", "qc_qa": "TGS", "degree": "DOCTOR'S DEGREE", "enroll": 23164 }, "geometry": { "type": "Point", "coordinates": [ -77.370582414260255, 35.610377755375559 ] } },
{ "type": "Feature", "properties": { "onemap_sdeadmin_colluniv_area": "336", "objectid": 126, "id": "10274254", "metlnkid": " ", "feattype": "POINT", "secclass": "UNCLASSIFIED", "name": "UNIVERSITY OF NORTH CAROLINA AT GREENSBORO", "phone": "334-5000", "address": "1000 SPRING GARDEN STREET", "address2": " ", "city": "GREENSBORO", "state": "NC", "zip": "27412", "zipp4": " ", "county": "GUILFORD", "fips": "37081", "directions": "ON THE NORTH SIDE OF SPRING GARDEN STREET BETWEEN FOREST STREET AND TATE STREET", "emergtitle": " ", "emergphone": " ", "emergext": " ", "contdate": "2007-07-11T00:00:00Z", "conthow": "PHONE", "geodate": "2007-07-26T00:00:00Z", "geohow": "MANUAL", "naicscode": "611310", "naicsdescr": "UNIVERSITIES", "geolinkid": "17133088", "x": -79.8058491, "y": 36.0667875, "st_vendor": "NAVTEQ", "st_version": "2006Q4", "geoprec": "BLOCKFACE", "phoneloc": "YES", "qc_qa": "TGS", "degree": "DOCTOR'S DEGREE", "enroll": 16147 }, "geometry": { "type": "Point", "coordinates": [ -79.80585203535442, 36.06679462216178 ] } },
{ "type": "Feature", "properties": { "onemap_sdeadmin_colluniv_area": "704", "objectid": 127, "id": "10274253", "metlnkid": " ", "feattype": "POINT", "secclass": "UNCLASSIFIED", "name": "UNIVERSITY OF NORTH CAROLINA AT CHARLOTTE", "phone": "687-2000", "address": "9201 UNIVERSITY CITY BOULEVARD", "address2": " ", "city": "CHARLOTTE", "state": "NC", "zip": "28223", "zipp4": "0001", "county": "MECKLENBURG", "fips": "37119", "directions": "ON THE NORTH SIDE OF THE INTERSECTION OF MARY ALEXANDER ROAD AND UNIVERSITY CITY BOULEVARD", "emergtitle": " ", "emergphone": " ", "emergext": " ", "contdate": "2007-07-11T00:00:00Z", "conthow": "PHONE", "geodate": "2007-07-11T00:00:00Z", "geohow": "MANUAL", "naicscode": "611310", "naicsdescr": "UNIVERSITIES", "geolinkid": "28212103", "x": -80.7291079, "y": 35.3029766, "st_vendor": "NAVTEQ", "st_version": "2006Q4", "geoprec": "BLOCKFACE", "phoneloc": "YES", "qc_qa": "TGS", "degree": "DOCTOR'S DEGREE", "enroll": 20772 }, "geometry": { "type": "Point", "coordinates": [ -80.72911107342604, 35.302983549010946 ] } },
{ "type": "Feature", "properties": { "onemap_sdeadmin_colluniv_area": "336", "objectid": 130, "id": "10271569", "metlnkid": " ", "feattype": "POINT", "secclass": "UNCLASSIFIED", "name": "NORTH CAROLINA AGRICULTURE AND TECHNICAL STATE UNIVERSITY", "phone": "334-7500", "address": "1601 EAST MARKET STREET", "address2": " ", "city": "GREENSBORO", "state": "NC", "zip": "27411", "zipp4": "0001", "county": "GUILFORD", "fips": "37081", "directions": "ON THE NORTH SIDE OF EAST MARKET STREET BETWEEN NORTH LAUREL STREET AND NORTH BENBOW ROAD", "emergtitle": " ", "emergphone": " ", "emergext": " ", "contdate": "2007-07-10T00:00:00Z", "conthow": "PHONE", "geodate": "2007-07-10T00:00:00Z", "geohow": "MANUAL", "naicscode": "61151", "naicsdescr": "TECHNICAL AND TRADE SCHOOLS", "geolinkid": "125497719", "x": -79.7734792, "y": 36.0721258, "st_vendor": "NAVTEQ", "st_version": "2006Q4", "geoprec": "BLOCKFACE", "phoneloc": "YES", "qc_qa": "TGS", "degree": "DOCTOR'S DEGREE", "enroll": 11103 }, "geometry": { "type": "Point", "coordinates": [ -79.773482192561573, 36.072132856225082 ] } }
]
}
